user_id,name,zip,lat,lon
001,Aamal,95130,37.189396,-121.705327
002,Bamal,95131,37.388389,-121.886316
003,Camal,95132,37.433587,-121.829615
004,Damal,95133,37.372239,-121.864265
005,Eamal,95134,37.189396,-121.705327
006,Famal,95135,37.272289,-121.723862
007,Gamal,95136,37.189396,-121.705327
008,Hamal,95137,37.189396,-121.705327
009,Iamal,95138,37.258733,-121.745159

